{"data":[{"Item_ID":"58","Item_Name":"ytry","Image":"12-24-0001-1722767387-0.jpg","Type":0,"Category_ID":12,"Category_Name":"Documents","Item_Status":2,"Description":"yrty","Pin_Location":"Dr. Eliseo M. Pajaro Inter-Faith Chapel Building, CLSU, Milflor St, Mu\u00f1oz, 3120 Nueva Ecija, Philippines","Posted_Date":"2024-08-04 18:29:47","Current_Location":"Reporter","Poster_ID":"24-0001","Latitude":"15.73484468","Longitude":"120.92954971","Retrieved_By":null,"Retrieved_Date":null},{"Item_ID":"57","Item_Name":"item ;lost example","Image":"7-24-0010-1722263513-0.png","Type":0,"Category_ID":7,"Category_Name":"Glasses","Item_Status":4,"Description":"jhfjghdfjgfdg ","Pin_Location":"PWQJ+84V, Executive Ave, Science City of Mu\u00f1oz, Nueva Ecija, Philippines","Posted_Date":"2024-07-29 16:31:53","Current_Location":null,"Poster_ID":"24-0010","Latitude":"15.73824656","Longitude":"120.92968410","Retrieved_By":"24-0011","Retrieved_Date":"2024-07-29 22:40:49"},{"Item_ID":"56","Item_Name":"bobylat jhgjghj ","Image":"15-19-9999-1721939875-0.png,15-19-9999-1721939875-1.png,15-19-9999-1721939875-2.png","Type":0,"Category_ID":15,"Category_Name":"Headphones","Item_Status":5,"Description":"ewdew erewr fdsf  juhgj hg","Pin_Location":"72 Tobias St, Science City of Mu\u00f1oz, Nueva Ecija, Philippines","Posted_Date":"2024-07-26 03:59:05","Current_Location":"Reporter","Poster_ID":"19-9999","Latitude":"15.71452698","Longitude":"120.90867273","Retrieved_By":null,"Retrieved_Date":null},{"Item_ID":"55","Item_Name":"Item found testsetstaet ","Image":"1-00-0002-1721318200-0.jpg","Type":1,"Category_ID":1,"Category_Name":"Electronics","Item_Status":1,"Description":"tgdf g","Pin_Location":"PWVR+H3G Philippine Carabao Center, Magtanggol Rd, Science City of Mu\u00f1oz, 3120 Nueva Ecija, Philippines","Posted_Date":"2024-07-25 23:56:27","Current_Location":"OAd Office","Poster_ID":"00-0002","Latitude":"15.74402111","Longitude":"120.93995801","Retrieved_By":null,"Retrieved_Date":null},{"Item_ID":"54","Item_Name":"test","Image":"9-00-0002-1721315224-0.jpg","Type":1,"Category_ID":15,"Category_Name":"Headphones","Item_Status":5,"Description":"dfgdfgfdg","Pin_Location":"PXHG+4R San Jose City, Nueva Ecija, Philippines","Posted_Date":"2024-07-24 20:58:37","Current_Location":"Reporter","Poster_ID":"00-0002","Latitude":"15.72778490","Longitude":"120.97711332","Retrieved_By":null,"Retrieved_Date":null},{"Item_ID":"52","Item_Name":"dsfds fdsf","Image":"4-19-9999-1721307430-0.jpg","Type":0,"Category_ID":1,"Category_Name":"Electronics","Item_Status":1,"Description":"fdsfsd","Pin_Location":"PWJG+W64, Science City of Mu\u00f1oz, Nueva Ecija, Philippines","Posted_Date":"2024-07-23 20:57:10","Current_Location":"Reporter","Poster_ID":"19-9999","Latitude":"15.73225134","Longitude":"120.92555857","Retrieved_By":null,"Retrieved_Date":null},{"Item_ID":"51","Item_Name":"dsfds fdsf","Image":"4-19-9999-1721307389-0.jpg","Type":1,"Category_ID":16,"Category_Name":"School Supplies","Item_Status":4,"Description":"fdsfsd","Pin_Location":"PWMG+2C7, Raminad St, Science City of Mu\u00f1oz, Nueva Ecija, Philippines","Posted_Date":"2024-07-18 20:56:29","Current_Location":"","Poster_ID":"19-9999","Latitude":"15.73241399","Longitude":"120.92596761","Retrieved_By":null,"Retrieved_Date":null},{"Item_ID":"50","Item_Name":"dasd","Image":"10-24-0000-1721307389-0.jpg","Type":0,"Category_ID":17,"Category_Name":"Miscellaneous","Item_Status":4,"Description":"dsad","Pin_Location":"PWP9+FVM, Science City of Mu\u00f1oz, 3119 Nueva Ecija, Philippines","Posted_Date":"2024-07-18 20:56:29","Current_Location":"Reporter","Poster_ID":"24-0000","Latitude":"15.73505767","Longitude":"120.91955178","Retrieved_By":null,"Retrieved_Date":null},{"Item_ID":"49","Item_Name":"dsfds fdsf","Image":"4-19-9999-1721307389-0.jpg","Type":0,"Category_ID":16,"Category_Name":"School Supplies","Item_Status":1,"Description":"fdsfsd","Pin_Location":"PWMG+2C7, Raminad St, Science City of Mu\u00f1oz, Nueva Ecija, Philippines","Posted_Date":"2024-07-18 20:56:29","Current_Location":"","Poster_ID":"19-9999","Latitude":"15.73241399","Longitude":"120.92596761","Retrieved_By":null,"Retrieved_Date":null},{"Item_ID":"48","Item_Name":"dasd","Image":"10-24-0000-1721307389-0.jpg","Type":1,"Category_ID":15,"Category_Name":"Headphones","Item_Status":1,"Description":"dsad","Pin_Location":"Dr. Eliseo M. Pajaro Inter-Faith Chapel Building, CLSU, Milflor St, Mu\u00f1oz, 3120 Nueva Ecija, Philippines","Posted_Date":"2024-07-18 20:56:29","Current_Location":"","Poster_ID":"24-0000","Latitude":"15.73501636","Longitude":"120.92918627","Retrieved_By":null,"Retrieved_Date":null},{"Item_ID":"47","Item_Name":"dsfds fdsf","Image":"4-19-9999-1721307389-0.jpg","Type":0,"Category_ID":14,"Category_Name":"Wallets","Item_Status":0,"Description":"fdsfsd","Pin_Location":"PWMG+2C7, Raminad St, Science City of Mu\u00f1oz, Nueva Ecija, Philippines","Posted_Date":"2023-12-27 20:56:29","Current_Location":"","Poster_ID":"19-9999","Latitude":"15.73241399","Longitude":"120.92596761","Retrieved_By":null,"Retrieved_Date":null},{"Item_ID":"46","Item_Name":"dasd","Image":"10-24-0000-1721307389-0.jpg","Type":1,"Category_ID":13,"Category_Name":"Cameras","Item_Status":0,"Description":"dsad","Pin_Location":"Dr. Eliseo M. Pajaro Inter-Faith Chapel Building, CLSU, Milflor St, Mu\u00f1oz, 3120 Nueva Ecija, Philippines","Posted_Date":"2024-07-18 20:56:29","Current_Location":"","Poster_ID":"24-0000","Latitude":"15.73501636","Longitude":"120.92918627","Retrieved_By":null,"Retrieved_Date":null},{"Item_ID":"45","Item_Name":"dsfds fdsf","Image":"4-19-9999-1721307388-0.jpg","Type":0,"Category_ID":12,"Category_Name":"Documents","Item_Status":0,"Description":"fdsfsd","Pin_Location":"PWMG+2C7, Raminad St, Science City of Mu\u00f1oz, Nueva Ecija, Philippines","Posted_Date":"2024-07-18 20:56:28","Current_Location":"","Poster_ID":"19-9999","Latitude":"15.73241399","Longitude":"120.92596761","Retrieved_By":null,"Retrieved_Date":null},{"Item_ID":"44","Item_Name":"dasd","Image":"10-24-0000-1721307388-0.jpg","Type":0,"Category_ID":11,"Category_Name":"Toys","Item_Status":0,"Description":"dsad","Pin_Location":"Dr. Eliseo M. Pajaro Inter-Faith Chapel Building, CLSU, Milflor St, Mu\u00f1oz, 3120 Nueva Ecija, Philippines","Posted_Date":"2024-07-18 20:56:28","Current_Location":"","Poster_ID":"24-0000","Latitude":"15.73501636","Longitude":"120.92918627","Retrieved_By":null,"Retrieved_Date":null},{"Item_ID":"43","Item_Name":"dsfds fdsf","Image":"4-19-9999-1721307388-0.jpg","Type":1,"Category_ID":11,"Category_Name":"Toys","Item_Status":6,"Description":"fdsfsd","Pin_Location":"PWMG+2C7, Raminad St, Science City of Mu\u00f1oz, Nueva Ecija, Philippines","Posted_Date":"2024-07-18 20:56:28","Current_Location":"","Poster_ID":"19-9999","Latitude":"15.73241399","Longitude":"120.92596761","Retrieved_By":null,"Retrieved_Date":null},{"Item_ID":"42","Item_Name":"dasd","Image":"10-24-0000-1721307388-0.jpg","Type":0,"Category_ID":10,"Category_Name":"Musical Instruments","Item_Status":0,"Description":"dsad","Pin_Location":"Dr. Eliseo M. Pajaro Inter-Faith Chapel Building, CLSU, Milflor St, Mu\u00f1oz, 3120 Nueva Ecija, Philippines","Posted_Date":"2024-07-18 20:56:28","Current_Location":"","Poster_ID":"24-0000","Latitude":"15.73501636","Longitude":"120.92918627","Retrieved_By":null,"Retrieved_Date":null},{"Item_ID":"40","Item_Name":"dasd","Image":"10-24-0000-1721307388-0.jpg","Type":0,"Category_ID":9,"Category_Name":"Sports Equipment","Item_Status":0,"Description":"dsad","Pin_Location":"Dr. Eliseo M. Pajaro Inter-Faith Chapel Building, CLSU, Milflor St, Mu\u00f1oz, 3120 Nueva Ecija, Philippines","Posted_Date":"2024-07-18 20:56:28","Current_Location":"","Poster_ID":"24-0000","Latitude":"15.73501636","Longitude":"120.92918627","Retrieved_By":null,"Retrieved_Date":null},{"Item_ID":"39","Item_Name":"dsfds fdsf","Image":"4-19-9999-1721307387-0.jpg","Type":1,"Category_ID":8,"Category_Name":"Umbrellas","Item_Status":1,"Description":"fdsfsd","Pin_Location":"PWMG+2C7, Raminad St, Science City of Mu\u00f1oz, Nueva Ecija, Philippines","Posted_Date":"2024-07-18 20:56:27","Current_Location":"","Poster_ID":"19-9999","Latitude":"15.73241399","Longitude":"120.92596761","Retrieved_By":null,"Retrieved_Date":null},{"Item_ID":"38","Item_Name":"dasd","Image":"10-24-0000-1721307387-0.jpg","Type":0,"Category_ID":8,"Category_Name":"Umbrellas","Item_Status":0,"Description":"dsad","Pin_Location":"Dr. Eliseo M. Pajaro Inter-Faith Chapel Building, CLSU, Milflor St, Mu\u00f1oz, 3120 Nueva Ecija, Philippines","Posted_Date":"2024-07-18 20:56:27","Current_Location":"","Poster_ID":"24-0000","Latitude":"15.73501636","Longitude":"120.92918627","Retrieved_By":null,"Retrieved_Date":null},{"Item_ID":"37","Item_Name":"dsfds fdsf","Image":"4-19-9999-1721307387-0.jpg","Type":1,"Category_ID":7,"Category_Name":"Glasses","Item_Status":6,"Description":"fdsfsd","Pin_Location":"PWMG+2C7, Raminad St, Science City of Mu\u00f1oz, Nueva Ecija, Philippines","Posted_Date":"2024-07-18 20:56:27","Current_Location":"","Poster_ID":"19-9999","Latitude":"15.73241399","Longitude":"120.92596761","Retrieved_By":null,"Retrieved_Date":null},{"Item_ID":"36","Item_Name":"dasd","Image":"10-24-0000-1721307387-0.jpg","Type":0,"Category_ID":7,"Category_Name":"Glasses","Item_Status":0,"Description":"dsad","Pin_Location":"Dr. Eliseo M. Pajaro Inter-Faith Chapel Building, CLSU, Milflor St, Mu\u00f1oz, 3120 Nueva Ecija, Philippines","Posted_Date":"2024-01-18 20:56:27","Current_Location":"","Poster_ID":"24-0000","Latitude":"15.73501636","Longitude":"120.92918627","Retrieved_By":null,"Retrieved_Date":null},{"Item_ID":"35","Item_Name":"dsfds fdsf","Image":"4-19-9999-1721307387-0.jpg","Type":1,"Category_ID":6,"Category_Name":"Water Bottles","Item_Status":1,"Description":"fdsfsd","Pin_Location":"PWMG+2C7, Raminad St, Science City of Mu\u00f1oz, Nueva Ecija, Philippines","Posted_Date":"2024-07-18 20:56:27","Current_Location":"","Poster_ID":"19-9999","Latitude":"15.73241399","Longitude":"120.92596761","Retrieved_By":null,"Retrieved_Date":null},{"Item_ID":"34","Item_Name":"dasd","Image":"10-24-0000-1721307387-0.jpg","Type":0,"Category_ID":6,"Category_Name":"Water Bottles","Item_Status":0,"Description":"dsad","Pin_Location":"Dr. Eliseo M. Pajaro Inter-Faith Chapel Building, CLSU, Milflor St, Mu\u00f1oz, 3120 Nueva Ecija, Philippines","Posted_Date":"2024-07-18 20:56:27","Current_Location":"","Poster_ID":"24-0000","Latitude":"15.73501636","Longitude":"120.92918627","Retrieved_By":null,"Retrieved_Date":null},{"Item_ID":"33","Item_Name":"dsfds fdsf","Image":"4-19-9999-1721307386-0.jpg","Type":1,"Category_ID":5,"Category_Name":"Bags","Item_Status":6,"Description":"fdsfsd","Pin_Location":"PWMG+2C8, Raminad St, Science City of Mu\u00f1oz, Nueva Ecija, Philippines","Posted_Date":"2024-07-18 20:56:26","Current_Location":"","Poster_ID":"19-9999","Latitude":"15.73241399","Longitude":"120.92596761","Retrieved_By":null,"Retrieved_Date":null},{"Item_ID":"32","Item_Name":"dasd","Image":"10-24-0000-1721307386-0.jpg","Type":0,"Category_ID":5,"Category_Name":"Bags","Item_Status":0,"Description":"dsad","Pin_Location":"Dr. Eliseo M. Pajaro Inter-Faith Chapel Building, CLSU, Milflor St, Mu\u00f1oz, 3120 Nueva Ecija, Philippines","Posted_Date":"2024-07-18 20:56:26","Current_Location":"","Poster_ID":"24-0000","Latitude":"15.73501636","Longitude":"120.92918627","Retrieved_By":null,"Retrieved_Date":null},{"Item_ID":"31","Item_Name":"dsfds fdsf","Image":"4-19-9999-1721307386-0.jpg","Type":1,"Category_ID":4,"Category_Name":"Keys","Item_Status":0,"Description":"fdsfsd","Pin_Location":"PWMG+2C1, Raminad St, Science City of Mu\u00f1oz, Nueva Ecija, Philippines","Posted_Date":"2024-07-18 20:56:26","Current_Location":"","Poster_ID":"19-9999","Latitude":"15.73241399","Longitude":"120.92596761","Retrieved_By":null,"Retrieved_Date":null},{"Item_ID":"30","Item_Name":"dasd","Image":"10-24-0000-1721307386-0.jpg","Type":0,"Category_ID":4,"Category_Name":"Keys","Item_Status":0,"Description":"dsad","Pin_Location":"Dr. Eliseo M. Pajaro Inter-Faith Chapel Building, CLSU, Milflor St, Mu\u00f1oz, 3120 Nueva Ecija, Philippines","Posted_Date":"2024-07-18 20:56:26","Current_Location":"","Poster_ID":"24-0000","Latitude":"15.73501636","Longitude":"120.92918627","Retrieved_By":null,"Retrieved_Date":null},{"Item_ID":"29","Item_Name":"dsfds fdsf","Image":"4-19-9999-1721307386-0.jpg","Type":1,"Category_ID":3,"Category_Name":"Books","Item_Status":0,"Description":"fdsfsd","Pin_Location":"PWMG+2C10, Raminad St, Science City of Mu\u00f1oz, Nueva Ecija, Philippines","Posted_Date":"2024-07-16 20:56:26","Current_Location":"","Poster_ID":"19-9999","Latitude":"15.73241399","Longitude":"120.92596761","Retrieved_By":null,"Retrieved_Date":null},{"Item_ID":"28","Item_Name":"dasd","Image":"10-24-0000-1721307386-0.jpg","Type":0,"Category_ID":3,"Category_Name":"Books","Item_Status":4,"Description":"dsad","Pin_Location":"Dr. Eliseo M. Pajaro Inter-Faith Chapel Building, CLSU, Milflor St, Mu\u00f1oz, 3120 Nueva Ecija, Philippines","Posted_Date":"2024-07-11 20:56:26","Current_Location":"","Poster_ID":"24-0000","Latitude":"15.73501636","Longitude":"120.92918627","Retrieved_By":null,"Retrieved_Date":null},{"Item_ID":"27","Item_Name":"dsfds fdsf","Image":"4-19-9999-1721307386-0.jpg","Type":1,"Category_ID":2,"Category_Name":"Clothing","Item_Status":0,"Description":"fdsfsd","Pin_Location":"PWMG+2C8, Raminad St, Science City of Mu\u00f1oz, Nueva Ecija, Philippines","Posted_Date":"2024-07-10 20:56:26","Current_Location":"","Poster_ID":"19-9999","Latitude":"15.73241399","Longitude":"120.92596761","Retrieved_By":null,"Retrieved_Date":null},{"Item_ID":"26","Item_Name":"dasd","Image":"10-24-0000-1721307385-0.jpg","Type":0,"Category_ID":2,"Category_Name":"Clothing","Item_Status":0,"Description":"dsad","Pin_Location":"Dr. Eliseo M. Pajaro Inter-Faith Chapel Building, CLSU, Milflor St, Mu\u00f1oz, 3120 Nueva Ecija, Philippines","Posted_Date":"2024-07-09 20:56:25","Current_Location":"","Poster_ID":"24-0000","Latitude":"15.73501636","Longitude":"120.92918627","Retrieved_By":null,"Retrieved_Date":null},{"Item_ID":"25","Item_Name":"dsfds fdsf","Image":"4-19-9999-1721307385-0.jpg","Type":1,"Category_ID":1,"Category_Name":"Electronics","Item_Status":0,"Description":"fdsfsd","Pin_Location":"PWMG+2C9, Raminad St, Science City of Mu\u00f1oz, Nueva Ecija, Philippines","Posted_Date":"2024-07-08 20:56:25","Current_Location":"","Poster_ID":"19-9999","Latitude":"15.73241399","Longitude":"120.92596761","Retrieved_By":null,"Retrieved_Date":null},{"Item_ID":"24","Item_Name":"dasd","Image":"10-24-0000-1721307385-0.jpg","Type":0,"Category_ID":1,"Category_Name":"Electronics","Item_Status":0,"Description":"dsad","Pin_Location":"Dr. Eliseo M. Pajaro Inter-Faith Chapel Building, CLSU, Milflor St, Mu\u00f1oz, 3120 Nueva Ecija, Philippines","Posted_Date":"2023-01-07 20:56:25","Current_Location":"","Poster_ID":"24-0000","Latitude":"15.73501636","Longitude":"120.92918627","Retrieved_By":null,"Retrieved_Date":null},{"Item_ID":"23","Item_Name":"dsfds fdsf","Image":"4-19-9999-1721307385-0.jpg","Type":0,"Category_ID":12,"Category_Name":"Documents","Item_Status":4,"Description":"fdsfsd","Pin_Location":"PWMG+2C7, Raminad St, Science City of Mu\u00f1oz, Nueva Ecija, Philippines","Posted_Date":"2024-07-05 20:56:25","Current_Location":"","Poster_ID":"19-9999","Latitude":"15.73241399","Longitude":"120.92596761","Retrieved_By":null,"Retrieved_Date":null},{"Item_ID":"22","Item_Name":"dasd","Image":"10-24-0000-1721307385-0.jpg","Type":0,"Category_ID":11,"Category_Name":"Toys","Item_Status":0,"Description":"dsad","Pin_Location":"Dr. Eliseo M. Pajaro Inter-Faith Chapel Building, CLSU, Milflor St, Mu\u00f1oz, 3120 Nueva Ecija, Philippines","Posted_Date":"2023-12-04 20:56:25","Current_Location":"","Poster_ID":"24-0000","Latitude":"15.73501636","Longitude":"120.92918627","Retrieved_By":null,"Retrieved_Date":null},{"Item_ID":"21","Item_Name":"dsfds fdsf","Image":"4-19-9999-1721307385-0.jpg","Type":0,"Category_ID":10,"Category_Name":"Musical Instruments","Item_Status":3,"Description":"fdsfsd","Pin_Location":"PWMG+2C8, Raminad St, Science City of Mu\u00f1oz, Nueva Ecija, Philippines","Posted_Date":"2024-07-03 20:56:25","Current_Location":"","Poster_ID":"19-9999","Latitude":"15.73241399","Longitude":"120.92596761","Retrieved_By":null,"Retrieved_Date":null},{"Item_ID":"20","Item_Name":"dasd","Image":"10-24-0000-1721307363-0.jpg","Type":0,"Category_ID":9,"Category_Name":"Sports Equipment","Item_Status":0,"Description":"dsad","Pin_Location":"Dr. Eliseo M. Pajaro Inter-Faith Chapel Building, CLSU, Milflor St, Mu\u00f1oz, 3120 Nueva Ecija, Philippines","Posted_Date":"2024-07-02 20:56:03","Current_Location":"","Poster_ID":"24-0000","Latitude":"15.73501636","Longitude":"120.92918627","Retrieved_By":null,"Retrieved_Date":null},{"Item_ID":"19","Item_Name":"dasd","Image":"10-24-0000-1721307337-0.jpg","Type":0,"Category_ID":8,"Category_Name":"Umbrellas","Item_Status":4,"Description":"dsad","Pin_Location":"Dr. Eliseo M. Pajaro Inter-Faith Chapel Building, CLSU, Milflor St, Mu\u00f1oz, 3120 Nueva Ecija, Philippines","Posted_Date":"2024-07-01 20:55:37","Current_Location":"","Poster_ID":"24-0000","Latitude":"15.73501636","Longitude":"120.92918627","Retrieved_By":null,"Retrieved_Date":null},{"Item_ID":"15","Item_Name":"Item lost 3","Image":"9-00-0002-1721306042-0.png,9-00-0002-1721306042-1.png,9-00-0002-1721306042-2.png","Type":0,"Category_ID":7,"Category_Name":"Glasses","Item_Status":1,"Description":"dasd","Pin_Location":"Executive House, Executive Ave, Science City of Mu\u00f1oz, Nueva Ecija, Philippines","Posted_Date":"2024-07-18 14:34:02","Current_Location":null,"Poster_ID":"00-0002","Latitude":"15.73332276","Longitude":"120.92802755","Retrieved_By":null,"Retrieved_Date":null},{"Item_ID":"11","Item_Name":"Item change","Image":"6-00-0002-1721316299-0.jpg","Type":0,"Category_ID":6,"Category_Name":"Water Bottles","Item_Status":0,"Description":"fsdfbdbd","Pin_Location":"PWMH+5M8, Wag wag St, Science City of Mu\u00f1oz, Nueva Ecija, Philippines","Posted_Date":"2024-07-18 07:02:08","Current_Location":"","Poster_ID":"00-0002","Latitude":"15.73331900","Longitude":"120.92940474","Retrieved_By":null,"Retrieved_Date":null},{"Item_ID":"7","Item_Name":"test","Image":"7-24-0000-1720963153-0.png","Type":0,"Category_ID":5,"Category_Name":"Bags","Item_Status":3,"Description":"dsfsdf ","Pin_Location":"PWMH+2Q8 Alpha Phi Omega Chapter in CLSU, University Ave, Science City of Mu\u00f1oz, Nueva Ecija, Philippines","Posted_Date":"2024-07-14 15:19:13","Current_Location":null,"Poster_ID":"24-0000","Latitude":"15.73282707","Longitude":"120.92961542","Retrieved_By":null,"Retrieved_Date":null},{"Item_ID":"5","Item_Name":"Item Found","Image":"13-24-0000-1720762591-0.jpg","Type":1,"Category_ID":4,"Category_Name":"Keys","Item_Status":5,"Description":"fsdfdsff f sdfsdfdsf fdsfdsf fdsfdsf fsdfsdf ","Pin_Location":"PWMH+MFV GAMMA EPSILON Fraternity\/Sorority Park, Central Luzon State University, CLSU, Science City of Mu\u00f1oz, Nueva Ecija, Philippines","Posted_Date":"2024-07-12 07:36:31","Current_Location":"USF Office","Poster_ID":"24-0000","Latitude":"15.73427283","Longitude":"120.92845670","Retrieved_By":null,"Retrieved_Date":null},{"Item_ID":"4","Item_Name":"Lost Item TEST 2","Image":"12-24-0000-1720761671-0.jpg","Type":0,"Category_ID":3,"Category_Name":"Books","Item_Status":1,"Description":"dasdsad dasdsad dsadsadsa dsadsad dsadsadsad dsadsad dsadsad d asd sadsadas dsadsad dsad s dasdsad dasdsad dsadsadsa dsadsad dsadsadsad dsadsad dsadsad d asd sadsadas dsadsad dsad s","Pin_Location":"Home Management Lab Building, Executive Ave, Science City of Mu\u00f1oz, Nueva Ecija, Philippines","Posted_Date":"2024-07-12 07:21:11","Current_Location":null,"Poster_ID":"24-0000","Latitude":"15.73303360","Longitude":"120.92794172","Retrieved_By":null,"Retrieved_Date":null},{"Item_ID":"3","Item_Name":"Item Found TEST 2","Image":"12-24-009-1720758557-0.jpg","Type":1,"Category_ID":2,"Category_Name":"Clothing","Item_Status":4,"Description":"shhdjd jsjsjsh jsjsjsj jdjdjjd djjdjdhd jsjsjdj sjjsjdj sjsjhshs jdjsjsjs jsjsjsjs jsjsjsjs","Pin_Location":"PWMH+5M8, Wag wag St, Science City of Mu\u00f1oz, Nueva Ecija, Philippines","Posted_Date":"2024-07-19 06:29:17","Current_Location":"Reporter","Poster_ID":"24-009","Latitude":"15.73328356","Longitude":"120.92929136","Retrieved_By":"24-0000","Retrieved_Date":"2024-07-13 08:23:19"},{"Item_ID":"2","Item_Name":"Item Found TEST","Image":"10-24-009-1720758268-0.jpg","Type":1,"Category_ID":1,"Category_Name":"Electronics","Item_Status":2,"Description":"shhdjd jsjsjsh jsjsjsj jdjdjjd djjdjdhd jsjsjdj sjjsjdj sjsjhshs jdjsjsjs jsjsjsjs jsjsjsjs","Pin_Location":"PWMH+99W, Executive Ave, Science City of Mu\u00f1oz, Nueva Ecija, Philippines","Posted_Date":"2024-07-20 06:24:28","Current_Location":"OAd Office","Poster_ID":"24-009","Latitude":"15.73356826","Longitude":"120.92854278","Retrieved_By":null,"Retrieved_Date":null}]}