{"data":[{"Item_ID":93,"Item_Name":"fdsfsd","Image":"12-24-0001-1723202564-0.png","Type":0,"Category_ID":12,"Category_Name":"Documents","Item_Status":0,"Description":"fsdfsdf","Pin_Location":"Dr. Eliseo M. Pajaro Inter-Faith Chapel Building, CLSU, Milflor St, Mu\u00f1oz, 3120 Nueva Ecija, Philippines","Posted_Date":"2024-08-09 13:22:44","Current_Location":null,"Poster_ID":"24-0001","Latitude":"15.73493374","Longitude":"120.92922918","Retrieved_By":null,"Retrieved_Date":null},{"Item_ID":92,"Item_Name":"rwer","Image":"10-24-0001-1723202522-0.png","Type":1,"Category_ID":10,"Category_Name":"Musical Instruments","Item_Status":0,"Description":"rwerewr","Pin_Location":"PWMH+FMV, University Ave, Science City of Mu\u00f1oz, Nueva Ecija, Philippines","Posted_Date":"2024-08-09 13:22:02","Current_Location":"Reporter","Poster_ID":"24-0001","Latitude":"15.73398368","Longitude":"120.92897169","Retrieved_By":null,"Retrieved_Date":null},{"Item_ID":89,"Item_Name":"asd das ","Image":"13-24-0001-1723202161-0.png","Type":0,"Category_ID":13,"Category_Name":"Cameras","Item_Status":0,"Description":"dsf fsdf ds fdsf sdf","Pin_Location":"RSTC Hostel, Intan St, Science City of Mu\u00f1oz, Nueva Ecija, Philippines","Posted_Date":"2024-08-09 13:16:01","Current_Location":null,"Poster_ID":"24-0001","Latitude":"15.73352929","Longitude":"120.93064539","Retrieved_By":null,"Retrieved_Date":null},{"Item_ID":86,"Item_Name":"fsdf","Image":"11-24-0001-1723201804-0.png","Type":1,"Category_ID":11,"Category_Name":"Toys","Item_Status":0,"Description":"dasd","Pin_Location":"PWMH+P22, Macan St, Science City of Mu\u00f1oz, Nueva Ecija, Philippines","Posted_Date":"2024-08-09 13:10:04","Current_Location":"USF Office","Poster_ID":"24-0001","Latitude":"15.73385975","Longitude":"120.92716924","Retrieved_By":null,"Retrieved_Date":null},{"Item_ID":71,"Item_Name":"dasd gdfdfg","Image":"8-24-0001-1723140292-0.jpg","Type":1,"Category_ID":8,"Category_Name":"Umbrellas","Item_Status":0,"Description":"dasd","Pin_Location":"PWJJ+P8P, Science City of Mu\u00f1oz, Nueva Ecija, Philippines","Posted_Date":"2024-08-08 20:04:52","Current_Location":"Reporter, OAd Office, USF Office","Poster_ID":"24-0001","Latitude":"15.73241399","Longitude":"120.93167536","Retrieved_By":null,"Retrieved_Date":null},{"Item_ID":70,"Item_Name":"dasd gdfdfg","Image":"8-24-0001-1723138884-0.jpg","Type":0,"Category_ID":8,"Category_Name":"Umbrellas","Item_Status":0,"Description":"dasd","Pin_Location":"PWMG+9JP, S H. Escudero, Science City of Mu\u00f1oz, Nueva Ecija, Philippines","Posted_Date":"2024-08-08 19:41:24","Current_Location":"Reporter","Poster_ID":"24-0001","Latitude":"15.73369452","Longitude":"120.92583887","Retrieved_By":null,"Retrieved_Date":null},{"Item_ID":69,"Item_Name":"dasd","Image":"9-24-0001-1723138169-0.jpg","Type":1,"Category_ID":9,"Category_Name":"Sports Equipment","Item_Status":0,"Description":"dasd","Pin_Location":"PWMG+9JP, S H. Escudero, Science City of Mu\u00f1oz, Nueva Ecija, Philippines","Posted_Date":"2024-08-08 19:29:29","Current_Location":"Reporter","Poster_ID":"24-0001","Latitude":"15.73319883","Longitude":"120.92669718","Retrieved_By":null,"Retrieved_Date":null},{"Item_ID":68,"Item_Name":"dasd","Image":"9-24-0001-1723135643-0.jpg","Type":1,"Category_ID":9,"Category_Name":"Sports Equipment","Item_Status":0,"Description":"dasd","Pin_Location":"PWMF+Q9M, Bantug - Bagong Sikat Rd, Science City of Mu\u00f1oz, Nueva Ecija, Philippines","Posted_Date":"2024-08-08 18:47:23","Current_Location":"Reporter","Poster_ID":"24-0001","Latitude":"15.73468590","Longitude":"120.92343561","Retrieved_By":null,"Retrieved_Date":null},{"Item_ID":67,"Item_Name":"dasd","Image":"16-24-0001-1723130988-0.jpg","Type":0,"Category_ID":16,"Category_Name":"School Supplies","Item_Status":0,"Description":"dasd","Pin_Location":"Executive Guest House, Executive Ave, Science City of Mu\u00f1oz, Nueva Ecija, Philippines","Posted_Date":"2024-08-08 17:29:48","Current_Location":null,"Poster_ID":"24-0001","Latitude":"15.73381845","Longitude":"120.92738382","Retrieved_By":null,"Retrieved_Date":null},{"Item_ID":66,"Item_Name":"dasd","Image":"16-24-0001-1723130379-0.jpg","Type":0,"Category_ID":16,"Category_Name":"School Supplies","Item_Status":0,"Description":"dasd","Pin_Location":"Executive Guest House, Executive Ave, Science City of Mu\u00f1oz, Nueva Ecija, Philippines","Posted_Date":"2024-08-08 17:19:39","Current_Location":null,"Poster_ID":"24-0001","Latitude":"15.73381845","Longitude":"120.92738382","Retrieved_By":null,"Retrieved_Date":null},{"Item_ID":65,"Item_Name":"dasd","Image":"17-24-0001-1723130331-0.jpg","Type":0,"Category_ID":17,"Category_Name":"Miscellaneous","Item_Status":0,"Description":"dasd","Pin_Location":"Executive Guest House, Executive Ave, Science City of Mu\u00f1oz, Nueva Ecija, Philippines","Posted_Date":"2024-08-08 17:18:51","Current_Location":null,"Poster_ID":"24-0001","Latitude":"15.73377714","Longitude":"120.92789881","Retrieved_By":null,"Retrieved_Date":null},{"Item_ID":60,"Item_Name":"dasdsad","Image":"10-24-0001-1723125167-0.png","Type":1,"Category_ID":10,"Category_Name":"Musical Instruments","Item_Status":0,"Description":"dasd","Pin_Location":"PWMH+FMV, University Ave, Science City of Mu\u00f1oz, Nueva Ecija, Philippines","Posted_Date":"2024-08-08 15:52:47","Current_Location":"Reporter","Poster_ID":"24-0001","Latitude":"15.73373583","Longitude":"120.92935793","Retrieved_By":null,"Retrieved_Date":null},{"Item_ID":59,"Item_Name":"Item test lost 69","Image":"10-24-0001-1723124717-0.png","Type":0,"Category_ID":10,"Category_Name":"Musical Instruments","Item_Status":0,"Description":"fsdf","Pin_Location":"PWPH+45P, Science City of Mu\u00f1oz, Nueva Ecija, Philippines","Posted_Date":"2024-08-08 15:45:17","Current_Location":null,"Poster_ID":"24-0001","Latitude":"15.73563596","Longitude":"120.92849962","Retrieved_By":null,"Retrieved_Date":null},{"Item_ID":58,"Item_Name":"ytry","Image":"12-24-0001-1722767387-0.jpg","Type":0,"Category_ID":12,"Category_Name":"Documents","Item_Status":2,"Description":"yrty","Pin_Location":"Dr. Eliseo M. Pajaro Inter-Faith Chapel Building, CLSU, Milflor St, Mu\u00f1oz, 3120 Nueva Ecija, Philippines","Posted_Date":"2024-08-04 18:29:47","Current_Location":"Reporter","Poster_ID":"24-0001","Latitude":"15.73484468","Longitude":"120.92954971","Retrieved_By":null,"Retrieved_Date":null}]}